[
  {"osm_item": "bw-wp-001", "name": "Greater Gaborone aquifer", "latitude": -24.6282, "longitude": 25.9231},
  {"osm_item": "bw-wp-002", "name": "Kweneng plateau borehole", "latitude": -24.41, "longitude": 25.87},
  {"osm_item": "bw-wp-003", "name": "Molepolole district water", "latitude": -24.41, "longitude": 25.5},
  {"osm_item": "bw-wp-004", "name": "Southern corridor source", "latitude": -25.22, "longitude": 25.68},
  {"osm_item": "bw-wp-005", "name": "Jwaneng catchment", "latitude": -24.6, "longitude": 24.73},
  {"osm_item": "bw-wp-006", "name": "Kanye valley spring", "latitude": -24.97, "longitude": 25.33},
  {"osm_item": "bw-wp-007", "name": "Mochudi supply", "latitude": -24.42, "longitude": 26.15},
  {"osm_item": "bw-wp-008", "name": "Palapye irrigation point", "latitude": -22.55, "longitude": 27.13},
  {"osm_item": "bw-wp-009", "name": "Serowe central borehole", "latitude": -22.39, "longitude": 26.71},
  {"osm_item": "bw-wp-010", "name": "Selibe Phikwe industrial", "latitude": -22.55, "longitude": 27.85},
  {"osm_item": "bw-wp-011", "name": "Francistown north field", "latitude": -21.17, "longitude": 27.51},
  {"osm_item": "bw-wp-012", "name": "Ramotswa line source", "latitude": -24.87, "longitude": 25.87},
  {"osm_item": "bw-wp-013", "name": "Maun delta edge", "latitude": -19.98, "longitude": 23.42},
  {"osm_item": "bw-wp-014", "name": "Okavango pan handle", "latitude": -19.2, "longitude": 22.65},
  {"osm_item": "bw-wp-015", "name": "Kasane Chobe strip", "latitude": -17.8, "longitude": 25.15},
  {"osm_item": "bw-wp-016", "name": "Nata saline buffer", "latitude": -20.22, "longitude": 26.18},
  {"osm_item": "bw-wp-017", "name": "Ghanzi dryland well", "latitude": -21.7, "longitude": 21.65},
  {"osm_item": "bw-wp-018", "name": "Tsabong Kalahari borehole", "latitude": -26.07, "longitude": 22.45},
  {"osm_item": "bw-wp-019", "name": "Kgalagadi transit borehole", "latitude": -25.0, "longitude": 21.5},
  {"osm_item": "bw-wp-020", "name": "Central district pivot", "latitude": -22.0, "longitude": 26.5},
  {"osm_item": "bw-wp-021", "name": "Unnamed Water Source", "latitude": -23.2, "longitude": 26.0},
  {"osm_item": "bw-wp-022", "name": "Eastern fence line", "latitude": -22.8, "longitude": 28.2}
]
